{
  "Авиационная": {
    "lat": 55.810855,
    "lon": 37.463395,
    "address": "Авиационная улица, вл. 24",
    "yandex_query": "Трассы Московские сезоны Авиационная",
    "yandex_name": "Фестивальная площадка Московские сезоны на улице Авиационная"
  },
  "Музей-заповедник «Коломенское»": {
    "lat": 55.673336,
    "lon": 37.67139,
    "address": "Большая улица, 91с3",
    "yandex_query": "Трассы Московские сезоны Музей-заповедник Коломенское",
    "yandex_name": "Музей-заповедник «Коломенское»"
  },
  "Святоозерская": {
    "lat": 55.714069,
    "lon": 37.878084,
    "address": "Святоозерская улица, вл. 1",
    "yandex_query": "Трассы Московские сезоны Святоозерская",
    "yandex_name": "Фестивальная площадка Московские сезоны на улице Святоозерская"
  },
  "Вешняковская": {
    "lat": 55.725965,
    "lon": 37.827275,
    "address": "Вешняковская улица, вл. 16",
    "yandex_query": "Трассы Московские сезоны Вешняковская",
    "yandex_name": "Бассейн на фестивальной площадке Московских сезонов в Вешняках"
  },
  "Площадь Славы": {
    "lat": 55.706376,
    "lon": 37.764411,
    "address": "Площадь Славы",
    "yandex_query": "Трассы Московские сезоны Площадь Славы",
    "yandex_name": "Фестивальная площадка Московские сезоны на площади Славы"
  },
  "Дмитрия Донского": {
    "lat": 55.567,
    "lon": 37.575325,
    "address": "Бульвар Дмитрия Донского, вл. 11",
    "yandex_query": "Трассы Московские сезоны Дмитрия Донского",
    "yandex_name": "Фестивальная площадка Московские сезоны на бульваре Дмитрия Донского"
  },
  "Адмирала Руднева": {
    "lat": 55.541983,
    "lon": 37.529906,
    "address": "Улица Адмирала Руднева, вл. 8",
    "yandex_query": "Трассы Московские сезоны Адмирала Руднева",
    "yandex_name": "Фестивальная площадка Московские сезоны на улице Адмирала Руднева"
  },
  "Профсоюзная": {
    "lat": 55.669148,
    "lon": 37.554726,
    "address": "Профсоюзная улица, вл. 41",
    "yandex_query": "Трассы Московские сезоны Профсоюзная",
    "yandex_name": "Фестивальная площадка Московские сезоны на улице Профсоюзная"
  },
  "Теплый стан": {
    "lat": 55.618913,
    "lon": 37.501384,
    "address": "Улица Теплый стан, вл. 1-Б",
    "yandex_query": "Трассы Московские сезоны Теплый стан",
    "yandex_name": "Фестивальная площадка Московские сезоны на улице Теплый стан"
  },
  "Сухонская": {
    "lat": 55.875784,
    "lon": 37.652544,
    "address": "Сухонская улица, 7",
    "yandex_query": "Трассы Московские сезоны Сухонская",
    "yandex_name": "Бассейн на фестивальной площадке Московских сезонов на улице Сухонская"
  },
  "Соколово-Мещерская": {
    "lat": 55.898982,
    "lon": 37.38675,
    "address": "Соколово-Мещерская улица, 23",
    "yandex_query": "Трассы Московские сезоны Соколово-Мещерская",
    "yandex_name": "Фестивальная площадка Московские сезоны в Куркино"
  },
  "Сквер Гольяново": {
    "lat": 55.822357,
    "lon": 37.798718,
    "address": "Уральская улица, 21",
    "yandex_query": "Трассы Московские сезоны Сквер Гольяново",
    "yandex_name": "Фестивальная площадка Московские сезоны в сквере у Гольяновского пруда"
  },
  "Грекова": {
    "lat": 55.885862,
    "lon": 37.661437,
    "address": "Улица Грекова вл. 3ж",
    "yandex_query": "Трассы Московские сезоны Грекова",
    "yandex_name": "Фестивальная площадка Московские сезоны на улице Грекова"
  }
}
